"Longitude","Latitude","SiteID","year","S","N","logS","logN","p1","p2","p3","p4","predS","predN","predlogS","predlogN"
-85.8,34.85,"AL_Steve_enson",2009,36,436,1.55630250076729,2.63948648926859,0.979102062397,0.827578701921,0.979099392875,0.827578710185,36.9379126320759,2535.78164621284,1.57793753188172,2.81993951961838
-92.6167,36.2667,"AR_Crook_Creek",2009,31,178,1.49136169383427,2.25042000230889,0.942539046295,0.756333696407,0.942536955184,0.756333697348,38.4637880376926,-2298.41948558356,1.61593322457963,2.64149543895367
-92.3983,34.9017,"AR_Faulk_nties",2009,47,448,1.67209785793572,2.65127801399814,0.971303798296,0.925707623206,0.971303709682,0.925707623209,45.2950247662252,-1744.73846622616,1.61966590864204,2.80477453622279
-94.3667,34.6833,"AR_Rich _ntain",2009,32,500,1.50514997831991,2.69897000433602,0.984996185414,0.436935519944,0.984986386636,0.436935830385,40.3080567946982,1439.07642033183,1.54208726522438,2.41695023851111
-93.9,33.1667,"AR_Rick _e WMA",2009,41,1485,1.61278385671974,3.17172645365323,0.994774951525,0.818577449599,0.994772326188,0.818577568733,43.7027720502032,-343.784602707567,1.60086893374094,2.69782463732153
-111.1106,33.2788,"AZ_Boyce_retum",2009,30,144,1.47712125471966,2.15836249209525,0.925867070518,0.759154305994,0.925865501154,0.759154306323,43.013842194578,1829.92246821759,1.64522604356545,3.14947135927632
-110.6833,31.4833,"AZ_Patag_gonia",2009,89,4653,1.94939000664491,3.66773305253327,0.996655850373,0.977090764507,0.996655847955,0.977090764507,70.8285202284493,743.974161529853,1.81014658519792,2.94594390428061
-109.1667,33.85,"AZ_Porta_ortal",2009,62,862,1.79239168949825,2.93550726582471,0.982541733496,0.360119066397,0.982541732038,0.360119066397,61.5442473142815,665.73670825998,1.68784287593466,2.77290677723316
-110.3333,31.3333,"AZ_Ramse_anyon",2009,95,1978,1.97772360528885,3.29622628726116,0.989588114284,0.828063555124,0.989588115795,0.828063555124,73.957519536395,-966.002666787146,1.83524436864704,2.98586313358852
-110.75,32.5,"AZ_Sabin_anyon",2009,50,519,1.69897000433602,2.71516735784846,0.974383873679,0.555169917857,0.974383825275,0.555169917862,71.0424804636069,3463.00266678713,1.84144924097786,3.04057971985866
-122.45,39,"CA_Benic_nicia",2009,34,494,1.53147891704226,2.69372694892365,0.983515795805,0.687679101977,0.983510156649,0.687679182418,28.4823066016095,-217.885517582168,1.48759829639603,2.79570369893714
-122,37.8833,"CA_Berke_keley",2009,47,1296,1.67209785793572,3.11260500153457,0.992679017074,0.590029914749,0.992678363874,0.590029922148,38.3962694230911,-1111.86988206476,1.54178059880303,2.804246620848
-121.7,39.8333,"CA_Big C_serve",2009,25,204,1.39794000867204,2.3096301674259,0.964655231126,0.695947154826,0.964625225414,0.695947574985,24.8865211617604,687.436827021427,1.4172111709958,2.73437369632542
-121.45,38.35,"CA_Cosum_River",2009,12,426,1.07918124604762,2.62940959910272,0.995549208485,0.550046628874,0.994641948072,0.557449157213,26.0680552840913,359.223720946823,1.36659765943348,2.94651659043851
-115.8167,33.7333,"CA_Cotto_pring",2009,29,3062,1.46239799789896,3.48600518636224,0.998574622683,0.0379254878459,0.998553655508,0.0379400505305,30.1938410741251,2529.25153033361,1.47980572143377,2.78560167010653
-119.75,38.3667,"CA_Darde_elles",2009,62,1162,1.79239168949825,3.06520612805431,0.988102917485,0.940014860382,0.988102909391,0.940014860382,65.4378595589587,-1495.43179326495,1.84358751292472,3.08357294101281
-118.0833,33.8,"CA_El Do_enter",2009,17,247,1.23044892137827,2.39269695325967,0.98387504708,0.839965370256,0.983510156649,0.840072134512,21.5230775810589,1336.19907595043,1.30723695569429,2.78551783269541
-121.5,36.35,"CA_Hasti_ation",2009,45,1134,1.65321251377534,3.05461305455689,0.991809365116,0.491327138795,0.991808468233,0.491327150022,41.9626851420319,1007.65428615593,1.64647511039002,2.63673028428451
-116.1667,34.0167,"CA_Joshu_ Tree",2009,38,462,1.57978359661681,2.66464197555613,0.979206367917,0.80630916459,0.979204746919,0.806309168143,36.8061589258767,994.748469666308,1.56237587308202,2.58639097227572
-121.5167,41.7667,"CA_Lava _ument",2009,49,1659,1.69019608002851,3.21984638602436,0.994321039058,0.940896980446,0.994320491792,0.940896982434,49.429930212761,1485.4094892996,1.66727689710592,2.82107336725198
-112.6667,38.0833,"CA_Marin_n Co.",2009,33,463,1.51851393987789,2.66558099101795,0.982753459476,0.719349111208,0.982746551605,0.719349212674,42.4377913431721,864.628230878285,1.6099663870732,2.54386644977892
-121.8333,36.5333,"CA_Monte_terey",2009,36,478,1.55630250076729,2.67942789661212,0.981468562223,0.558282004569,0.981465478021,0.558282028245,36.0333253265339,646.185729128114,1.51361309288406,2.51703425610914
-121.4167,40.4333,"CA_Mount_assen",2009,60,1788,1.77815125038364,3.2523675144599,0.99335091535,0.339926709965,0.993350859429,0.339926710042,56.5621404410438,4445.43179326501,1.72695542695721,2.77288053004739
-121.8667,37.95,"CA_Mount_iablo",2009,34,1136,1.53147891704226,3.055378331375,0.99423687581,0.62594796507,0.994227119611,0.625949757338,24.7434460394558,2547.94895305614,1.35252194927299,2.91339238520486
-117.5833,33.7167,"CA_O'Nei_ Park",2009,18,80,1.25527250510331,1.90308998699194,0.917262890898,0.621547025744,0.917148656469,0.621548139629,22.4582726998058,-1076.2956911014,1.3299449114352,3.00126342293896
-118.3667,33.7333,"CA_Palos_erdes",2009,28,1340,1.44715803134222,3.12710479836481,0.996309073828,0.0336762204366,0.996278267826,0.0336808480081,24.6770601092558,-1648.01266748802,1.35335123575494,2.75007804678308
-118.0667,34.2167,"CA_Pasad_adena",2009,24,873,1.38021124171161,2.94101424370557,0.994868624322,0.0364915483045,0.994799731484,0.0365031210831,27.0039895314371,831.159984716056,1.42963805298021,2.76375887152702
-121.2,38.4667,"CA_Pinna_ument",2009,42,2146,1.6232492903979,3.33162971762993,0.996564378999,0.70783031191,0.996561851213,0.707830654369,20.5997019384933,1629.11400521576,1.30502205908618,2.97115077793214
-122.4167,37.8,"CA_San F_cisco",2009,25,530,1.39794000867204,2.72427586960079,0.989879046567,0.337800074081,0.989822586093,0.337814986514,39.2349028135431,3166.31857262569,1.55286672612724,2.58247360999906
-121.3,38.15,"CA_San J_n Co.",2009,19,186,1.27875360095283,2.26951294421792,0.972504697032,0.658910750199,0.972307504119,0.658933473514,28.5887240937756,-1434.35487157186,1.39188934212791,2.92910457048513
-118.6,34.0833,"CA_Santa_anyon",2009,16,114,1.20411998265592,2.05690485133647,0.957837723456,0.751977660444,0.957430241949,0.752009347024,10.3415896098826,3169.10928263909,1.14646633759537,2.48363717456262
-118.2333,37.5333,"CA_White_ntain",2009,20,310,1.30102999566398,2.49136169383427,0.985002924465,0.892579214048,0.98483035259,0.892602379033,27.9187181391059,1706.98422082928,1.44644534722777,2.39309710495011
-121.7333,38.5667,"CA_Willo_lough",2009,18,1025,1.25527250510331,3.01072386539177,0.997172780447,0.291928743413,0.996983236912,0.293023975995,25.0000726441888,1817.06819235328,1.35190454962342,2.94578900900176
-102.55,39.65,"CA_Yuba _ Pass",2009,78,1849,1.89209460269048,3.26693691115917,0.991156710573,0.304499819008,0.99115671418,0.304499819008,78.5164890564835,1764.85028979596,1.9027656449282,2.93498983704377
-105.3667,40.15,"CO_Cal-W_enter",2009,22,432,1.34242268082221,2.63548374681491,0.988896493055,0.346232135861,0.988786750871,0.346274270441,25.0457982264088,-2420.20573469042,1.36419628982522,2.1455456419654
-105.3333,32.8333,"CO_Gilpi_n Co.",2009,64,1043,1.80617997398389,3.01828430842653,0.985777076595,0.0282520604766,0.985777063642,0.0282520604768,51.4419104911446,-446.659176477412,1.74262399870177,2.87358319419719
-105.3167,40.3667,"CO_Roose_orest",2009,18,38,1.25527250510331,1.57978359661681,0.739654115997,0.769606610646,0.73964983215,0.769606610841,13.8488505078741,-1498.63131797941,1.1913889234843,2.05585802870357
-72.5333,41.6667,"CT_East _nbury",2009,28,251,1.44715803134222,2.39967372148104,0.96885614533,0.830507091335,0.968841717727,0.830507181973,34.4623893603173,1434.04471951254,1.5406257657735,2.72651924319717
-72.8833,41.8167,"CT_Farmi_alley",2009,32,824,1.50514997831991,2.91592721169712,0.992039780729,0.157006233779,0.992026426281,0.157007219668,32.7408534835392,212.798192201113,1.5246083927577,2.69401000251279
-72.75,41.5333,"CT_Merid_riden",2009,21,623,1.32221929473392,2.79448804665917,0.993445831127,0.397358234369,0.993313814882,0.397518153523,34.9318523776488,1268.73093846787,1.54132496654729,2.74020080445908
-72.2333,41.8,"CT_Storr_torrs",2009,28,110,1.44715803134222,2.04139268515822,0.900749477483,0.72803388555,0.900748039649,0.728033885721,33.981976798561,1084.08360569595,1.53655687882111,2.70785721012333
-73.45,41.2833,"CT_West _d Co.",2009,24,364,1.38021124171161,2.56110138364906,0.984464279674,0.810605522059,0.984399399201,0.810611476185,33.8231664735719,576.157910093915,1.54188102610653,2.67089950676004
-81.6667,26.7167,"FL_Alva_Alva",2009,27,664,1.43136376415899,2.82216807936802,0.99159223292,0.837738255736,0.991554659679,0.837744351593,42.0593039128838,984.652106334338,1.61375324701383,2.8002892167345
-82.4167,28.7333,"FL_Annut_mmock",2009,32,194,1.50514997831991,2.28780172993023,0.946753872894,0.894365092159,0.946752091339,0.894365092572,40.0470283567256,1267.64990634204,1.58914772887727,2.7270331287923
-82.3333,29.6667,"FL_Arche_rcher",2009,55,1378,1.74036268949424,3.13924921757161,0.991749088056,0.374170141439,0.991748980153,0.374170141623,37.3248764630295,1775.54038878451,1.53633539158282,2.67237863063899
-81.3333,27.6167,"FL_Avon _Range",2009,34,522,1.53147891704226,2.71767050300226,0.984648944624,0.555023251415,0.984642944665,0.555023370551,37.4102095534102,1159.60876253392,1.5527599964793,2.83709355040007
-81.3667,24.6833,"FL_Big P_e Key",2009,25,1137,1.39794000867204,3.05576046468773,0.996095206328,0.677059177734,0.996040915516,0.677136309354,32.6921930330838,2764.32061500683,1.51483978631398,2.87851196398462
-86.8,30.85,"FL_Black_orest",2009,24,217,1.38021124171161,2.33645973384853,0.969244868718,0.858551019445,0.969199530427,0.858551695462,32.5829463261649,-1253.56707043535,1.44718773178804,2.35550587107496
-81.65,28,"FL_Bok T_Tower",2009,20,90,1.30102999566398,1.95424250943932,0.918682733886,0.615187826251,0.918628194965,0.615188118837,37.1573059016944,-1453.22620446724,1.55128820067772,2.82467711102186
-80.55,27.8333,"FL_Breva_South",2009,28,1092,1.44715803134222,3.03822263836872,0.995256628878,0.391122628401,0.995225168303,0.391144863795,32.3955651884871,601.431921170883,1.49400648470761,2.95531112205065
-80.157,26.2313,"FL_Browa_North",2009,32,285,1.50514997831991,2.45484486000851,0.968572970442,0.890116538174,0.968568383795,0.890116545335,29.5623470291357,1021.11489178505,1.4675206127071,2.75675530573488
-80.3167,26.064,"FL_Browa_South",2009,38,433,1.57978359661681,2.63648789635337,0.977357337289,0.806592466782,0.977355905437,0.806592469158,31.5139050047982,390.987352456793,1.47470104085182,2.6674996154518
-80.9667,28.0833,"FL_Bull _Creek",2009,42,764,1.6232492903979,2.88309335857569,0.987643104605,0.262127321563,0.987641947809,0.262127327922,37.9314357591874,1344.28803253565,1.53389795251187,2.8422974351129
-82.3333,27.7667,"FL_Bullf_Creek",2009,44,1026,1.64345267648619,3.0111473607758,0.9909732287,0.405976743063,0.990972214143,0.405976754404,40.2555386656794,-1800.52928426851,1.58123711849932,2.80100347743723
-86.5,30.5167,"FL_Choct_hwest",2009,36,459,1.55630250076729,2.66181268553726,0.980461823009,0.779755480637,0.980458929874,0.779755493825,33.8397015544846,-1637.21417895833,1.49184454308572,2.43325742128951
-81,28.5,"FL_Chris_stmas",2009,60,1385,1.77815125038364,3.14144977340047,0.990856777914,0.902557667993,0.990856742949,0.902557667999,37.7078011011457,998.306617008857,1.54015299880429,2.83347892083976
-82.3833,29,"FL_Citru_s Co.",2009,21,76,1.32221929473392,1.88081359228079,0.887901882716,0.782732975119,0.887882800253,0.782732990942,38.833375491988,1246.2344429344,1.57354572732085,2.73532437063374
-82.05,28.3167,"FL_Colt _Creek",2009,51,579,1.70757017609794,2.76267856372744,0.977246068083,0.827045947557,0.977246015581,0.827045947561,40.3305328674227,-737.337410706905,1.65751275387386,2.73640781614023
-80.2833,25.6667,"FL_Coral_ables",2009,39,1094,1.5910646070265,3.03901732199741,0.992836111821,0.705236113392,0.992832765837,0.705236257399,37.5374622118722,188.713475469676,1.59164109094511,2.69834715335314
-81.5167,26.3667,"FL_Corks_tuary",2009,40,963,1.60205999132796,2.98362628712453,0.991329110451,0.67137978785,0.991326684421,0.671379845898,47.5379064509403,1548.16478185962,1.67779649669852,2.83954163121469
-82.6667,29.3167,"FL_Devil_mmock",2009,36,342,1.55630250076729,2.53402610605613,0.971176430248,0.187724464616,0.971174723644,0.187724466644,38.8088999121668,679.287501999404,1.56575018133887,2.67399576100227
-81.4,28.1167,"FL_Disne_serve",2009,46,535,1.66275783168157,2.72835378202123,0.977958131097,0.337636907317,0.977957943335,0.337636907392,36.043205821321,-465.637781028257,1.53550027457326,2.8152257712181
-81.2167,29.55,"FL_Flagl_heast",2009,27,303,1.43136376415899,2.4814426285023,0.976920916401,0.0795791513446,0.976895981171,0.0795793832834,34.1281650212808,1098.57697200763,1.5026747951229,2.81571266356902
-85.2117,30.8083,"FL_Flori_ Park",2009,36,215,1.55630250076729,2.33243845991561,0.945622880571,0.596379478003,0.945622440148,0.596379478072,29.4745125628344,2037.18065738072,1.471344592777,2.57186547057532
-82.8,29.4,"FL_Gilch_t Co.",2009,34,494,1.53147891704226,2.69372694892365,0.983515795805,0.718916045751,0.983510156649,0.718916121435,39.5556825634945,95.5599318693694,1.58031337025633,2.67558636902285
-82.6333,29.0833,"FL_Goeth_orest",2009,52,1476,1.7160033436348,3.16908635748702,0.992937422208,0.776829867512,0.992937177821,0.77682986839,39.2781972361219,1399.78546843594,1.56011441299433,2.71157365554442
-82.3167,28.5333,"FL_Herna_ East",2009,40,501,1.60205999132796,2.69983772586725,0.98000000339,0.17451932614,0.979998979602,0.174519327616,40.8886477606308,538.05392381106,1.62274630830031,2.73261485955421
-82.5833,29.8333,"FL_High _rings",2009,41,261,1.61278385671974,2.41664050733828,0.950256636478,0.909961294747,0.950256518406,0.90996129475,36.6072713228141,2371.03988975454,1.55123370029355,2.62934939675109
-81.5333,27.4333,"FL_Highl_mmock",2009,46,926,1.66275783168157,2.96661098668193,0.989134845771,0.759876558776,0.989134300434,0.759876560622,38.000346678556,1280.8701089443,1.53822452799678,2.82808883760402
-80.5,25.4833,"FL_Homes_stead",2009,45,1615,1.65321251377534,3.20817252666712,0.994714374952,0.824717280022,0.994713154306,0.824717306966,38.7703447550452,892.965909523532,1.53573625221486,2.72488810380815
-80.9667,27.55,"FL_Kissi_tuary",2009,57,2067,1.75587485567249,3.31534047662729,0.994780178033,0.939283833603,0.994780045877,0.939283833765,39.8362295111425,2473.33333538918,1.56822810180612,2.81945904251093
-80.7167,28.5,"FL_Lake _ Park",2009,27,340,1.43136376415899,2.53147891704225,0.980166862272,0.234224583787,0.980139212484,0.234225500764,38.7083060126859,393.001029233451,1.56258377767489,2.88738162178114
-82.5667,27.5,"FL_Mocca_allow",2009,31,561,1.49136169383427,2.74896286125616,0.987574186586,0.558995381561,0.987560353101,0.558996227306,42.0694404665679,-2011.32806079781,1.58946288425589,2.86037631659654
-80.8333,27.2833,"FL_Okeec_hobee",2009,61,1228,1.78532983501077,3.08919836680515,0.989134800844,0.188307023122,0.989134787495,0.188307023124,41.024902773773,3068.89249995462,1.58121787064237,2.80817349259157
-82.7333,28.05,"FL_Palm _North",2009,38,472,1.57978359661681,2.67394199863409,0.979781448506,0.912860108651,0.979779767359,0.912860110698,36.82553258911,-2.55635681630883,1.58328494010074,2.76663210707996
-80.1,26.7667,"FL_Palm _South",2009,35,1130,1.54406804435028,3.05307844348342,0.993985823728,0.934507079858,0.993977893148,0.934507374563,30.6044348115138,1620.56807882915,1.49721959098493,2.86483929079127
-80.1667,26.65,"FL_Palm _arbor",2009,33,1302,1.51851393987789,3.11461098423217,0.995304551013,0.282308010356,0.995292338931,0.282311450482,33.2253750162854,705.789795022376,1.55752013403684,2.86421633428542
-80.15,26.4333,"FL_Palm _ntral",2009,31,423,1.49136169383427,2.62634036737504,0.982122789212,0.884345677012,0.982111837303,0.884345790727,31.1166475924433,697.748622789462,1.51807602108588,2.82664256755805
-82.0833,26.4333,"FL_Sanib_nibel",2009,18,95,1.25527250510331,1.97772360528885,0.935419449471,0.799750961826,0.935265483607,0.799753061166,41.7643996014533,2071.57529079836,1.58611448829259,2.84095459617043
-81.2333,28.35,"FL_Split_ Park",2009,41,443,1.61278385671974,2.64640372622307,0.975710568018,0.979172713003,0.975709989944,0.979172713051,36.7375210514608,263.241363278906,1.54508394058016,2.7893353492602
-82.75,27.8,"FL_St. P_sburg",2009,33,673,1.51851393987789,2.82801506422398,0.989321247898,0.740588140634,0.98931167068,0.74058858415,37.0674141431841,-2229.06322790021,1.57890935140064,2.81142411580411
-84.3,30.45,"FL_Talla_assee",2009,50,1015,1.69897000433602,3.00646604224923,0.989249274842,0.798945091221,0.989249052304,0.798945091521,35.9800910910814,1017.46056518216,1.54095451263064,2.58701639836906
-82.35,28.05,"FL_Tampa_Tampa",2009,36,490,1.55630250076729,2.69019608002851,0.98205685135,0.730210486888,0.982053669494,0.730210508227,39.3507164028755,-833.10913421352,1.60837635779442,2.73478136728586
-82.5833,28.1167,"FL_Tarpo_ West",2009,39,479,1.5910646070265,2.68033551341456,0.979480976723,0.274248140385,0.979479702261,0.274248143326,38.471439742878,28.0169010878199,1.60292677029499,2.75589812422951
-81.3667,27.85,"FL_Walk-_Water",2009,49,878,1.69019608002851,2.9434945159061,0.987402460612,0.105356768157,0.98740223609,0.105356768289,36.5316830023102,34.6571294747746,1.5458069122321,2.82438561436104
-81.3667,28.7833,"FL_Wekiv_River",2009,47,850,1.67209785793572,2.92941892571429,0.987550495081,0.0054548234669,0.987550123668,0.0054548234872,36.3158930036239,1019.94694988539,1.52468665713102,2.76000848946288
-80.7333,25.3833,"FL_Weste_ Park",2009,30,470,1.47712125471966,2.67209785793572,0.985053497292,0.90715290081,0.985037746864,0.907153159911,38.5817253573397,97.3593379463268,1.55411265468701,2.82690079650795
-82.2167,28.8333,"FL_Withl_River",2009,35,348,1.54406804435028,2.54157924394658,0.972877965532,0.810521546301,0.972875507586,0.810521550894,38.7088798101219,853.67556211615,1.58337323005491,2.74183505207258
-83.5833,32.7333,"GA_Bond _efuge",2009,49,978,1.69019608002851,2.9903388547876,0.989016373269,0.788848452513,0.989016102286,0.788848452947,45.1524173927755,3006.8370170611,1.68217766541112,2.82119021951074
-85,34.9,"GA_Catoo_field",2009,36,395,1.55630250076729,2.59659709562646,0.976200826429,0.632656951764,0.976198562211,0.632656959429,35.6426525106628,728.059056696759,1.50877090056591,2.73529965310622
-81.9167,33.3667,"GA_Centr_alley",2009,35,365,1.54406804435028,2.56229286445647,0.974544727318,0.223159422873,0.974542032666,0.223159429853,41.77037734032,-178.5084129296,1.57201423820205,2.74844720076267
-81.3,31.6833,"GA_Harri_efuge",2009,42,493,1.6232492903979,2.69284691927723,0.978223874308,0.61600577783,0.978223331297,0.616005778444,46.1540676496007,-196.904083038107,1.63730237783446,2.84753797536414
-84.0167,33.1667,"GA_High _Falls",2009,47,1035,1.67209785793572,3.01494034979294,0.990299263783,0.880331548781,0.990298766684,0.880331549895,44.8689555642925,3387.08745166176,1.66987056846306,2.80396162769761
-85.4,34.8167,"GA_Looko_ntain",2009,36,287,1.55630250076729,2.45788189673399,0.963490453698,0.757014142537,0.963489336807,0.757014143226,37.0766569932675,1962.10629145715,1.54166844457249,2.78798250158458
-81.5453,31.3595,"GA_Lower_amaha",2009,22,108,1.34242268082221,2.03342375548695,0.928250358067,0.768532496767,0.928218580725,0.768532598367,40.1009176149716,1641.26453943323,1.58373105794758,2.76761854967183
-84.0667,33.6167,"GA_Monas_tains",2009,54,1618,1.73239375982297,3.20897851727625,0.993395797424,0.0428006916968,0.993395623939,0.0428006918196,43.5147975887299,2188.38964825653,1.64718354379437,2.74983002677155
-83.7333,33.1,"GA_Piedm_Creek",2009,63,1606,1.79934054945358,3.20574554094266,0.991925576292,0.0734768863801,0.99192555798,0.073476886382,45.5567541251418,3277.89693091204,1.69076920732137,2.80956414133079
-84.4167,32.85,"GA_Rolan_oland",2009,43,484,1.63346845557959,2.68484536164441,0.97698724363,0.571191552109,0.976986863086,0.571191552399,43.3052728896368,3362.89604065449,1.65987805485506,2.76124638876768
-90.7,42.4833,"IA_Dubuq_buque",2009,33,400,1.51851393987789,2.60205999132796,0.979127985276,0.323675729006,0.97912222198,0.323675783285,35.9722213991114,696.593315449795,1.53974481031584,2.56859594778897
-90.4667,42.0167,"IA_Green_Mound",2009,17,125,1.23044892137827,2.09691001300806,0.959533538036,0.728612023858,0.959230395251,0.7286333131,26.6335507115547,509.525328871809,1.41084473678408,2.53838600334334
-91.6167,41.7333,"IA_Iowa _ City",2009,25,379,1.39794000867204,2.57863920996807,0.98444151666,0.941973683336,0.984390551927,0.941975043734,25.1987448436824,1137.18733427712,1.39111221897214,2.59959392191352
-91.9,43.1833,"IA_Lake _Meyer",2009,24,366,1.38021124171161,2.56348108539441,0.984574245997,0.749925697188,0.984509220963,0.749933097278,35.7011892092629,1908.35054733551,1.53269108954354,2.61177036593957
-91.6833,40.5833,"IA_Shime_orest",2009,36,962,1.55630250076729,2.98317507203781,0.992392532565,0.900348195823,0.992386564213,0.900348359215,37.7906123657168,888.784893136163,1.53583570006291,2.62259074551598
-95.7,40.75,"IA_Waubo_onsie",2009,32,336,1.50514997831991,2.52633927738984,0.974777568989,0.644620421521,0.974771490371,0.644620465135,28.8910936810183,1539.58224869856,1.43000646407678,2.6551170209449
-91.2167,43.1333,"IA_Yello_orest",2009,30,718,1.47712125471966,2.8561244442423,0.991282071881,0.35314249143,0.991262299812,0.353145448704,38.7318549411289,1191.21701142882,1.57397813586439,2.6597886737681
-115.0833,43.0833,"ID_Benne_Hills",2009,37,767,1.56820172406699,2.88479536394898,0.989534156956,0.81419555847,0.989530119735,0.814195630707,38.6113223352399,2561.83738049384,1.59209120397311,3.11589431027319
-114.7167,46.45,"ID_Berge_erger",2009,23,735,1.36172783601759,2.86628733908419,0.993987306319,0.550430625991,0.993901237768,0.550521436879,23.0000000000018,735.000000000038,1.36172783601761,2.67237254242798
-116.1333,43.7,"ID_Boise_Front",2009,42,439,1.6232492903979,2.64246452024212,0.974619351067,0.839572386413,0.974618938483,0.839572386567,22.9736248361889,1427.85071062018,1.34316872610431,2.47409399768189
-112.2667,43.9667,"ID_Camas_efuge",2009,12,151,1.07918124604762,2.17897694729317,0.9815690789,0.796787246223,0.980120108589,0.797839011754,18.2049868564241,243.105754021731,1.19187075125135,2.71838145596234
-114.65,43.1833,"ID_Goodi_Rocks",2009,44,558,1.64345267648619,2.74663419893758,0.980321980231,0.964562758819,0.980321603017,0.964562758873,34.3112285040382,1492.94481470013,1.50707883497005,2.74222645818804
-113.622,43.1548,"ID_Laidl_ Park",2009,15,232,1.17609125905568,2.3654879848909,0.985395451672,4.87878755778e-07,0.984788241388,4.88988317941e-07,20.4980867716796,-1385.6507546427,1.25083693185122,2.82962664363494
-113.3667,42.65,"ID_Minid_efuge",2009,13,273,1.11394335230684,2.43616264704076,0.990624894686,0.886396070269,0.989700062327,0.887358854957,28.4007506964379,-1920.08790519313,1.31907310021127,2.89625825970711
-113.6485,42.2845,"ID_Mount_rison",2009,40,447,1.60205999132796,2.65030752313194,0.976767924987,0.753258923431,0.976767112949,0.753258924346,39.6507270722983,356.298277897586,1.57014319940032,2.78067973310646
-112.4817,42.245,"ID_Pleas_Hills",2009,56,679,1.7481880270062,2.8318697742805,0.979130785726,0.921134825324,0.979130771187,0.921134825324,51.7814125627898,174.544046352494,1.71338374909892,2.84460836626316
-116.4333,45.3667,"ID_Seven_evils",2009,43,784,1.63346845557959,2.89431606268444,0.987679195963,0.073941915363,0.98767827352,0.0739419168363,48.1905180025034,581.855459664013,1.71396641613863,2.47818247957542
-112.9948,42.3782,"ID_Suble_tains",2009,53,638,1.72427586960079,2.80482067872116,0.978932223357,0.797564470782,0.978932184235,0.797564470785,46.5353019985285,1110.04106111458,1.66969164678632,2.81400546590862
-113.9833,42.1667,"ID_Trapp_Creek",2009,38,608,1.57978359661681,2.78390357927274,0.985439764671,0.745804702498,0.985437323284,0.745804721131,41.3496876010776,-709.324328411034,1.56894652213968,2.70868929365572
-115.3833,44.8833,"ID_Yello_ Pine",2009,29,660,1.46239799789896,2.81954393554187,0.990716605671,0.147445449624,0.99069253821,0.147447526101,39.4401175704319,1181.23923435302,1.52849308767916,2.52250347432375
-90.4333,39.7333,"IL_Beard_stown",2009,40,434,1.60205999132796,2.63748972951251,0.975844285749,0.618934169114,0.975843510942,0.618934170099,31.7631529335056,1019.64570639944,1.45580933431596,2.63386634213357
-89.5167,41.5833,"IL_Green_ Area",2009,28,540,1.44715803134222,2.73239375982297,0.988555646874,0.655926004967,0.988527466386,0.655929371398,29.06052437312,2007.36434715791,1.41484080144314,2.5755337209307
-90.1,38.7,"IL_Horse_ Lake",2009,37,734,1.56820172406699,2.86569605991607,0.988934800811,0.726258109767,0.988930909741,0.726258189422,29.9946762361539,-825.717802065469,1.4730828179963,2.59680535368082
-89.9667,40.1167,"IL_Mason_n Co.",2009,38,860,1.57978359661681,2.93449845124357,0.990630315877,0.908736993233,0.990626808513,0.908737030817,28.9144123584353,1213.25491778018,1.42797018806838,2.60161857992599
-90.7833,40.3833,"IL_McDon_h Co.",2009,32,695,1.50514997831991,2.84198480459011,0.99014056664,0.907621226856,0.990128215611,0.907621587924,32.0343163577793,1288.57847834963,1.46068050488481,2.60301042043801
-91.4,40.3833,"IL_Warsa_arsaw",2009,32,661,1.50514997831991,2.82020145948564,0.989495040514,0.619683242072,0.989483022459,0.619684097879,36.4627474493688,962.742776131595,1.52830078985139,2.60111639780393
-85.4167,38.9333,"IN_Big O_efuge",2009,37,1080,1.56820172406699,3.03342375548695,0.99318308305,0.892629747248,0.993177970738,0.892629908304,36.4310028997884,-960.37365231635,1.546524511292,2.74059791312124
-86.25,39.95,"IN_Boone_e Co.",2009,15,79,1.17609125905568,1.89762709129044,0.93552034054,0.857853534494,0.935071356532,0.857864831876,23.7745525048961,-170.204867329981,1.38557866565034,2.52663608793195
-87.2333,39.0333,"IN_Goose_ Pond",2009,35,722,1.54406804435028,2.85853719756964,0.989471408911,0.973833036503,0.989465180593,0.973833063593,31.8566823091528,1265.81454700883,1.53708983307524,2.64438080960649
-85.2333,39.6833,"IN_Mary _tuary",2009,23,130,1.36172783601759,2.11394335230684,0.94127845455,0.757477678736,0.941247972151,0.75747782115,28.4243258474502,178.389502135815,1.45654174026759,2.61394479450318
-86.3167,39.0833,"IN_Monro_Brown",2009,51,1712,1.70757017609794,3.23350376034113,0.99426068712,0.67193840407,0.994260327628,0.67193840754,38.2074788982781,907.697953039458,1.56130307606094,2.73478198440511
-85.4167,41.3833,"IN_Noble_e Co.",2009,22,184,1.34242268082221,2.26481782300954,0.96586125154,0.296838574383,0.965786783671,0.296840959461,26.3541970672296,830.379559256251,1.40851586178055,2.56868042696847
-87.1167,39.8,"IN_Red T_ Farm",2009,24,150,1.38021124171161,2.17609125905568,0.948994951509,0.353804533416,0.94896835202,0.353804713262,29.8764778963715,-858.619595722343,1.47129682747612,2.54649508801656
-97.05,37.0333,"KS_Arkan_ City",2009,39,342,1.5910646070265,2.53402610605613,0.967906133942,0.771903813683,0.967905524626,0.771903813951,52.8477783621267,1410.2148589762,1.71894829219163,2.75901231465141
-96.9333,38.7167,"KS_Flint_Hills",2009,41,954,1.61278385671974,2.9795483747041,0.990949806757,0.445486967814,0.99094790982,0.445487005472,41.9828562273295,260.023491600357,1.6180644307589,2.73910090561709
-97.4667,38.0667,"KS_Harve_y Co.",2009,60,790,1.77815125038364,2.89762709129044,0.981261538602,0.901024481152,0.981261534313,0.901024481152,50.5345014154916,-205.380068441516,1.67375726378729,2.65321620399305
-85.5,38.35,"KY_Oldha_m Co.",2009,42,2099,1.6232492903979,3.3220124385824,0.996471020691,0.00939461833815,0.996468521286,0.00939463267359,38.4006998947982,-3423.63571569436,1.54664387663965,2.78071350745932
-92.4667,31.2667,"LA_Alexa_ndria",2009,40,453,1.60205999132796,2.65609820201283,0.977172852047,0.596474191882,0.977172009588,0.596474193198,33.3581811165291,4971.25840615343,1.53145407412703,2.62602060901927
-90.4583,30,"LA_Bonne_llway",2009,23,279,1.36172783601759,2.4456042032736,0.979218048938,0.828943866956,0.979143026302,0.82894803489,29.2632812931969,5631.64989698763,1.4308713975633,2.58280049067458
-92.4667,31.5167,"LA_Catah_arden",2009,24,346,1.38021124171161,2.53907609879278,0.983406668119,0.0529386003181,0.983343125851,0.0529402562883,33.0927101876149,5999.7503240872,1.53831024248132,2.64874688174971
-91.6,30.3833,"LA_India_ Area",2009,31,505,1.49136169383427,2.70329137811866,0.985782557689,0.196597482679,0.98576972205,0.196597847891,32.3944481353835,4983.30632830765,1.47743605394297,2.57806549945703
-93.0712,31.4847,"LA_Kisat_Trail",2009,28,134,1.44715803134222,2.12710479836481,0.92555041004,0.0609038353711,0.925547155589,0.0609038357807,34.6121987242157,3481.13983622056,1.5806113658154,2.56868419735987
-89.6667,30.35,"LA_Lower_River",2009,31,333,1.49136169383427,2.52244423350632,0.975529691912,0.836362271203,0.975521480178,0.836362319832,38.1486970952281,1579.73134441219,1.53930551260491,2.72836239504379
-90.1167,29.95,"LA_Metro_leans",2009,26,284,1.41497334797082,2.45331834004704,0.976088583805,0.926535365422,0.976056944418,0.926535678913,23.7019622623909,5624.24819808567,1.37692279701592,2.56914643868087
-93.7167,32.3667,"LA_Shrev_eport",2009,56,3217,1.7481880270062,3.50745106090197,0.997015176527,0.695509750945,0.997014936497,0.695509756425,40.6103006909497,2489.35677433194,1.56967544877905,2.71542729596061
-92.05,30.6167,"LA_Thist_ Area",2009,31,571,1.49136169383427,2.75663610824585,0.987851176523,0.882408629477,0.987837180671,0.882409009133,28.1567610743166,9115.87631536364,1.46848352990058,2.58485931095335
-70.2833,41.7,"MA_Barns_table",2009,22,498,1.34242268082221,2.69722934275972,0.990739293806,0.508394538757,0.990629299525,0.508459511889,28.2352998767071,3599.99638116211,1.45628782458712,3.06093326316945
-71.6167,42.1167,"MA_Black_ridor",2009,45,645,1.65321251377534,2.80955971463527,0.983218049593,0.939612977895,0.983217668797,0.939612978019,35.2381018588984,528.6825500314,1.52596990788709,2.79446083016451
-70.0167,41.7833,"MA_Brews_wster",2009,31,639,1.49136169383427,2.8055008581584,0.989470001198,0.647799723228,0.989455056039,0.647800958605,25.3415993545231,4169.97438812339,1.41630764407531,3.15291320330803
-70.9667,41.6333,"MA_Brist_l Co.",2009,32,1285,1.50514997831991,3.10890312766731,0.995407418869,0.0647261268439,0.995392656069,0.0647276432028,31.4531381942748,558.82463606787,1.46297649194304,2.83011035497956
-72.5167,42.5667,"MA_Centr_n Co.",2009,46,1666,1.66275783168157,3.22167499707077,0.994772959761,0.0888434494561,0.994771950524,0.0888434602195,29.3946002465957,452.11584696625,1.45061306948357,2.63554428323298
-71.4167,42.4333,"MA_Conco_ncord",2009,32,734,1.50514997831991,2.86569605991607,0.990796366073,0.716848607528,0.990783661337,0.716849656461,34.6695246712708,1270.5049670973,1.52104667294838,2.84311824226962
-70.5733,41.6,"MA_Falmo_mouth",2009,21,234,1.32221929473392,2.36921585741014,0.976800047792,0.593120923019,0.976678645765,0.593134810855,31.2724078073151,1560.01634050617,1.49348487642315,2.9537802141973
-72.55,42.1333,"MA_Lower_alley",2009,19,203,1.27875360095283,2.30749603791321,0.975550942384,0.518370241227,0.97534624558,0.518403753132,31.9418236567237,189.710192607752,1.51763670754042,2.69169601442185
-72.6,42.3667,"MA_North_mpton",2009,48,1811,1.68124123737559,3.25791845031406,0.995028309859,0.478743011021,0.995027594309,0.478743030115,31.5542661265766,228.063219277318,1.49651123265279,2.67092315389255
-71.8,42.4333,"MA_North_r Co.",2009,45,1481,1.65321251377534,3.17055505852121,0.994119855948,0.0277559861564,0.994118712403,0.0277559897825,33.1846310778959,1273.26545844637,1.51877679180079,2.7140018023047
-70.9167,42.7,"MA_North_x Co.",2009,27,1421,1.43136376415899,3.15259407792747,0.996718912907,0.235418458307,0.996682589927,0.235461010892,32.2959405337133,1543.79277279041,1.46949169880504,2.85787173035321
-73.3333,42.15,"MA_South_e Co.",2009,31,557,1.49136169383427,2.74585519517373,0.987460131906,0.824785656369,0.987446362983,0.824786139443,20.8181623520449,67.6539422083395,1.31453015166979,2.59790416910482
-77.1833,39.4167,"MD_ACAS_ACAS",2009,28,524,1.44715803134222,2.71933128698373,0.988108368628,0.773162108198,0.988080551381,0.773164485428,34.1971862634278,1904.17615584575,1.48582227437215,2.74417660070134
-76.2333,39.55,"MD_Harfo_d Co.",2009,33,235,1.51851393987789,2.37106786227174,0.957401167788,0.0758097421891,0.957399120086,0.0758097428049,36.2124362364852,-429.266858025039,1.55999411060771,2.79931734658882
-75.4667,38.2167,"MD_Nassa_Creek",2009,28,334,1.44715803134222,2.52374646681156,0.978699261881,0.863941341784,0.978678863689,0.863941640193,38.3082705081235,2862.06564691284,1.56982978441194,2.93063330731186
-76.8167,38.7333,"MD_Princ_s Co.",2009,36,198,1.55630250076729,2.29666519026153,0.938940917663,0.510275226787,0.938940599707,0.510275226818,39.7180657439391,352.401775340975,1.5925797613787,2.85392614499527
-76.6833,39.0667,"MD_West _l Co.",2009,31,475,1.49136169383427,2.67669360962487,0.984615938254,0.826789700926,0.984603725606,0.82678996074,36.4118020894233,358.814723606114,1.5500254686341,2.79126844274087
-77.3667,39.1667,"MD_Weste_y Co.",2009,47,927,1.67209785793572,2.9670797341445,0.988849873804,0.753186462357,0.988849450962,0.753186463459,40.5622205986243,1366.13194910464,1.60082789715224,2.74968879002141
-68.7333,44.7333,"ME_Field_enter",2009,21,381,1.32221929473392,2.58092497567562,0.987738245018,0.809650063729,0.987600604763,0.809685946555,22.5114387404144,4049.55256784552,1.38575630331594,2.66321654493182
-68.9,44.5333,"ME_Lower_bscot",2009,37,1729,1.56820172406699,3.23779499327392,0.996175101511,0.765221839112,0.996169092537,0.765223051375,22.0247564367078,3670.98569074511,1.36723471110474,2.72441958030966
-86.0167,42.55,"MI_Alleg_legan",2009,25,130,1.39794000867204,2.11394335230684,0.933896888383,0.630024637131,0.933884396246,0.63002466404,31.6034763584906,1249.06935133174,1.44507199458875,2.6255886667746
-83.7167,42.2667,"MI_Ann A_ City",2009,41,923,1.61278385671974,2.96520170102591,0.990566100217,0.907369312753,0.990564257728,0.907369323956,31.3813294058571,947.064244481223,1.46143300153633,2.68406166869304
-84.0333,42.3333,"MI_Chels_elsea",2009,42,586,1.6232492903979,2.76789761601809,0.982622242682,0.935680660566,0.982621483171,0.935680661025,32.6178263692817,1291.00217533235,1.47215775325117,2.67258705735673
-85.95,46.35,"MI_Fox R_Seney",2009,16,169,1.20411998265592,2.22788670461367,0.975438235514,0.785992559691,0.97496920307,0.786090296342,22.0669841524676,489.719027870055,1.32252131928986,2.70007151620804
-84.4167,43.25,"MI_Grati_ginaw",2009,19,104,1.27875360095283,2.01703333929878,0.938639487438,0.517601165562,0.938525072165,0.517603250413,26.0994357347677,1744.37988993798,1.39254621115424,2.68618285856137
-86.1667,43.2333,"MI_Great_kegon",2009,30,300,1.47712125471966,2.47712125471966,0.973091443665,0.552141870613,0.973081740399,0.552141970768,31.883693760084,955.410749418385,1.46046906261116,2.64497121042521
-83.5333,42.7667,"MI_Headw_Twp.)",2009,20,328,1.30102999566398,2.51587384371168,0.986065178476,0.270552040814,0.985891701778,0.27060704626,31.5966998108708,1043.80534795532,1.47013067389737,2.70051148207523
-84.6,41.85,"MI_Hills_sdale",2009,30,135,1.47712125471966,2.13033376849501,0.918629405536,0.804073973432,0.918628194965,0.804073973576,27.3874647384903,1321.90702079964,1.4081184696032,2.62656252190325
-84.9,42.4333,"MI_Olive_livet",2009,22,73,1.34242268082221,1.86332286012046,0.872257701941,0.520888483468,0.872249090068,0.520888487472,30.9283240450579,1591.47877751729,1.44142830686339,2.65259110903351
-85.9167,43.0333,"MI_Ottaw_River",2009,32,382,1.50514997831991,2.58206336291171,0.978707094155,0.397996881522,0.978699790808,0.397996970759,30.0571813937731,1121.16811701834,1.43479994033563,2.61973163010128
-85.9333,43.8333,"MI_Ottaw_shore",2009,28,167,1.44715803134222,2.22271647114758,0.945527470596,0.488335111404,0.9455210735,0.488335123238,31.7980400929742,3760.32847564537,1.49605203078581,2.64199217225679
-85.5833,43.25,"MI_Rogue_River",2009,22,124,1.34242268082221,2.09342168516224,0.941058252342,0.769449189024,0.941015559242,0.76944944534,30.6911784374763,966.765771636567,1.44954929138008,2.62464540010257
-83.25,43,"MI_Seven_enter",2009,20,269,1.30102999566398,2.42975228000241,0.981942182668,0.390266187974,0.981773697892,0.390305443228,30.0393412050077,1159.79790549213,1.45637569277978,2.69452864269166
-84,43.35,"MI_Shiaw_efuge",2009,35,548,1.54406804435028,2.73878055848437,0.985030869059,0.932236411338,0.985026035759,0.932236432648,25.5533720618636,1998.95050754505,1.40074192897786,2.7324735155909
-84.05,42.0833,"MI_South_tenaw",2009,61,4160,1.78532983501077,3.61909333062674,0.997570204698,0.0748049143753,0.997570087445,0.0748049150582,30.1710577381343,1419.26848760253,1.44200488249115,2.67375752401118
-85.1333,46.6833,"MI_White_Point",2009,11,210,1.04139268515822,2.32221929473392,0.990025418736,0.661927818073,0.988378612671,0.666695148531,16.7838686369686,1089.71708148864,1.25564969216464,2.68160731510295
-91.9167,47.7833,"MN_Bear _sland",2009,12,55,1.07918124604762,1.74036268949424,0.921980735175,0.577048137169,0.920761155075,0.577143557194,25.950480380405,-4.13933547260194,1.35003303919648,2.3234089744449
-94.8667,47.45,"MN_Bemid_midji",2009,36,1141,1.55630250076729,3.05728564441821,0.993845381923,0.821284847214,0.993838909181,0.821285311436,37.2873151985595,523.763234659253,1.50720374593115,2.56988209076055
-96.1127,43.7035,"MN_Blue _ounds",2009,19,495,1.27875360095283,2.69460519893357,0.992350855283,0.675080675179,0.992141846417,0.675328485134,21.4574264744486,975.363595216295,1.31142561174828,2.5831943833768
-96.45,46.8333,"MN_Blues_estem",2009,32,547,1.50514997831991,2.73798732633343,0.986631468348,0.806459047435,0.986620910556,0.806459329378,32.0000000000014,546.99999999995,1.50514997831992,2.66322616986691
-95.3667,47.6,"MN_Centr_k Co.",2009,35,887,1.54406804435028,2.94792361983173,0.991873251311,0.391461993407,0.991866128827,0.391462525403,30.9175346094102,-1686.03714745209,1.43759123912904,2.60886756257118
-90.2833,47.8667,"MN_Cook _k Co.",2009,20,386,1.30102999566398,2.58658730467176,0.988712187521,0.434459181156,0.988538244549,0.434559871,19.5573793434734,-594.547267822682,1.24958122714353,2.57900245316287
-94.3833,46.9,"MN_Deep _rtage",2009,39,427,1.5910646070265,2.63042787502502,0.97613204319,0.549953031152,0.976131022534,0.549953032939,40.1991666547918,792.498265403138,1.54672949088989,2.58730223437396
-95.2,47.2167,"MN_Itasc_ Park",2009,61,1383,1.78532983501077,3.14082218010931,0.990647912286,0.85201237165,0.990647882313,0.852012371656,38.0773861969914,582.535411713103,1.51302914832013,2.5732501894247
-92.5333,47.5667,"MN_Laure_ivide",2009,20,134,1.30102999566398,2.12710479836481,0.953771230839,0.386274141979,0.953663408513,0.386277167394,29.3906000228183,107.403701712826,1.39646116551998,2.44415998356593
-92.7333,46.4333,"MN_Moose_ Park",2009,16,93,1.20411998265592,1.96848294855394,0.943863239698,0.83513511925,0.943515152117,0.83514551688,35.0349383718328,408.329762132215,1.48024195512635,2.49719040214336
-94.8667,46.9833,"MN_Nevis_Nevis",2009,59,1822,1.77085201164214,3.26054837263698,0.993637894057,0.810195630457,0.993637822655,0.810195630548,39.7468612715092,774.162076414235,1.54104886391976,2.56446686935125
-93.1667,45.0833,"MN_Ramse_y Co.",2009,22,156,1.34242268082221,2.19312459835446,0.957210257985,0.81644879379,0.957148661976,0.816449580868,30.4343525230501,-971.311044759583,1.46405778683676,2.59923046173119
-92.4167,44.0333,"MN_Roche_ester",2009,42,4799,1.6232492903979,3.68115074993242,0.99868478369,0.000370707428258,0.99868203775,0.00037071176636,24.7413358002143,621.48755945125,1.36221794877802,2.60109862440008
-89.25,36.6833,"MO_Big O_ Park",2009,17,125,1.23044892137827,2.09691001300806,0.959533538036,0.682233958679,0.959230395251,0.682257299507,25.2366421250142,12410.3754046974,1.39232316069973,2.73359667622929
-90.75,38.7,"MO_Busch_ Area",2009,10,76,1,1.88081359228079,0.96402442608,0.892900920153,0.961032061182,0.893565140548,34.9411768989129,-558.702084574586,1.52950464107973,2.63694184612144
-94.3133,39.32,"MO_Marth_tuary",2009,25,137,1.39794000867204,2.13672056715641,0.938639547341,0.764581553207,0.938625259582,0.764581584103,40.5394536256523,1308.88190978545,1.56481209115271,2.60905435866243
-94.0333,38.9333,"MO_Powel_rdens",2009,44,435,1.64345267648619,2.63848925695464,0.972668995075,0.804323361257,0.972668781972,0.804323361301,37.8153061724127,1349.51977761484,1.52447632118682,2.62932889386008
-90.8167,38.4833,"MO_Shaw _serve",2009,25,101,1.39794000867204,2.00432137378264,0.904760859646,0.901004753575,0.904755358969,0.90100475465,35.4422822476122,-589.349834331428,1.54714836903205,2.63195824784831
-89.4833,37.4,"MO_Trail_ Park",2009,39,797,1.5910646070265,2.90145832139611,0.989342004173,0.311089455728,0.989339423039,0.311089498384,42.6495823343572,-2032.28130349416,1.65560475547932,2.66966274156333
-90.75,32.75,"MS_Delta_orest",2009,32,73435,1.50514997831991,4.86590309920717,0.999958913438,0.0178468972616,0.999956623725,0.0179195454916,24.6619830116868,24356.2987162389,1.40789131295558,2.86322673584764
-89.3167,31.3,"MS_Hatti_sburg",2009,28,171,1.44715803134222,2.23299611039215,0.947302057184,0.865679912644,0.947295262285,0.865679919226,33.5550448035807,2074.97270680944,1.51992943549458,2.56923876831566
-90.1,32.3833,"MS_Missi_story",2009,14,23,1.14612803567824,1.36172783601759,0.602465325259,0.854404766394,0.602459726794,0.854404766502,43.4943817106368,5660.76869937289,1.54760136109803,2.72804698028354
-88.8,33.2833,"MS_Noxub_efuge",2009,55,686,1.74036268949424,2.83632411570675,0.97988930326,0.437158622277,0.979889287294,0.437158622278,41.2133691192974,5062.34426253161,1.52330285393498,2.75082083963672
-114,46.95,"MT_Five _lleys",2009,40,760,1.60205999132796,2.88081359228079,0.988309836276,0.841192086741,0.988307928236,0.84119209933,31.9303199961199,-1798.06842249049,1.45079934026182,2.59498748864063
-110.9333,47.05,"MT_Monar_narch",2009,22,161,1.34242268082221,2.20682587603185,0.959028962888,0.337933428919,0.958964827264,0.3379348038,28.217372820369,-99.9240043514947,1.43909873504868,2.65134219692248
-111.6833,45.8667,"MT_South_llies",2009,25,195,1.39794000867204,2.29003461136252,0.962416368909,0.943604732428,0.962388222687,0.943604815841,33.0696800038832,2753.06842249053,1.5492006597382,2.79344883101987
-110.7,44.9833,"MT_Yello_ Park",2009,62,857,1.79239168949825,2.9329808219232,0.982409438454,0.790764871569,0.982409433092,0.790764871569,49.7870204176516,-1352.44070721036,1.67784379554045,2.51670347284179
-77.0167,34.85,"NC_Croat_orest",2009,45,1437,1.65321251377534,3.15745676813423,0.993896883242,0.35092369925,0.993895770077,0.350923726329,38.8871637851083,-315.061844809653,1.54348030546524,2.75976255983155
-80.3333,35.7917,"NC_David_ounty",2009,32,157,1.50514997831991,2.19589965240923,0.92815983016,0.519628659536,0.928158997926,0.519628659678,41.5427299310684,-1659.20497531469,1.56533009024685,2.76682637867907
-78.9,36.1,"NC_Durha_urham",2009,59,2794,1.77085201164214,3.44622640177816,0.996230571382,0.475987070106,0.996230455453,0.475987071135,41.9213059766324,-1696.57957126985,1.55770282239785,2.75483896367714
-80.25,36.1167,"NC_Forsy_h Co.",2009,39,338,1.5910646070265,2.52891670027765,0.967393172421,0.133652059073,0.967392580719,0.133652059234,40.8713173609899,-658.187399580569,1.57592544968913,2.71864454957871
-79.3667,34.8333,"NC_Lumbe_ Park",2009,18,159,1.25527250510331,2.20139712432045,0.968468350433,0.714944300942,0.968218753552,0.714968780173,35.1010010103133,2530.46167199845,1.50175334366473,2.74397851525113
-77.7167,34.4667,"NC_Pende_ounty",2009,38,1021,1.57978359661681,3.00902574208691,0.992442116998,0.838347101736,0.992438134002,0.838347219195,40.9239383427919,1194.62805169566,1.57081802240528,2.78009399194038
-79.6667,34.8833,"NC_Sandh_ Land",2009,19,157,1.27875360095283,2.19589965240923,0.965400914513,0.649100280045,0.965222406053,0.649112848421,37.1162777274172,1827.05620231148,1.53134347061019,2.7612341419184
-77.9833,33.9667,"NC_South_hport",2009,44,1629,1.64345267648619,3.21192108430851,0.99491259288,0.607878377623,0.994911085868,0.607878448677,41.3353613814362,4231.93871562995,1.60196900142219,2.95089966397686
-80.8667,35.4333,"NC_South_orman",2009,51,841,1.70757017609794,2.92479599579791,0.98599071946,0.538077648516,0.985990588129,0.538077648618,40.4470693500806,-2007.9920708094,1.55863636679082,2.72770788501358
-80.5333,36.35,"NC_Surry_y Co.",2009,33,168,1.51851393987789,2.22530928172586,0.931857007854,0.563479853356,0.931856343918,0.563479853456,40.7972758617064,162.84744856275,1.58495560844182,2.69024676787191
-82.7333,35.2667,"NC_Trans_a Co.",2009,40,487,1.60205999132796,2.68752896121463,0.979244001769,0.705203866431,0.979243025754,0.705203868242,36.4177209172259,-1120.32993379245,1.51486310891375,2.28653437425817
-78.6333,35.7667,"NC_Wake _e Co.",2009,53,1482,1.72427586960079,3.17084820364331,0.992804603018,0.122590045096,0.992804398616,0.122590045471,40.1957037638664,-892.746719009785,1.56474698010687,2.76232184982952
-97.4587,45.9943,"ND_Tewau_ Lake",2009,12,362,1.07918124604762,2.55870857053317,0.994447268955,0.627682059937,0.993450801871,0.633423110615,12.0000000000013,361.999999999945,1.07918124604764,2.66495191845508
-95.6167,40.3167,"NE_India_ Park",2009,38,593,1.57978359661681,2.77305469336426,0.984964317195,0.69543828506,0.984961945346,0.695438303595,29.6125763249838,1573.46184400627,1.44864586815035,2.66878104972909
-96.8,40.7667,"NE_Pione_enter",2009,24,359,1.38021124171161,2.55509444857832,0.984183051623,0.862108759173,0.984118517435,0.862113175031,27.6534187287633,1155.88238758801,1.40082751086049,2.65872044828638
-74.2167,39.75,"NJ_Barne_negat",2009,21,305,1.32221929473392,2.48429983934679,0.983635316603,0.823553400685,0.983501929336,0.823572278102,36.4275276418082,640.358349639117,1.50529973050852,2.96861602921887
-74.9333,39.25,"NJ_Belle_plain",2009,41,1694,1.61278385671974,3.22891340599469,0.995552952401,0.760088269622,0.995550162595,0.760088492164,36.6299927178923,947.311705916548,1.53476413462992,2.98317991816056
-74.8667,39.0167,"NJ_Cape _e May",2009,47,2379,1.67209785793572,3.37639444203727,0.996523570307,0.642162270655,0.996522535329,0.642162340529,35.3500262703635,1098.43823291954,1.47098466242245,3.07724958595492
-75.2,39.3333,"NJ_Cumbe_d Co.",2009,52,5226,1.7160033436348,3.71816940539131,0.998467531689,0.38713098468,0.998466937243,0.387131105963,32.9138195134862,833.632620320271,1.49958521119752,2.88267331257543
-74.5583,39.4833,"NJ_Gallo_nship",2009,31,678,1.49136169383427,2.83122969386706,0.990230106153,0.624852995914,0.990214712784,0.6248545399,37.7314858317299,-189.580790030462,1.52154678753776,2.91989612699765
-74.4667,40.7833,"NJ_Great_Swamp",2009,44,1932,1.64345267648619,3.28600712207947,0.99586971771,0.979992183531,0.995868066156,0.979992193854,37.3331838046937,1282.63817596868,1.57399973208885,2.63127227017435
-74.7667,40.2667,"NJ_Merce_ercer",2009,38,3532,1.57978359661681,3.54802069490553,0.998323855139,0.3852140734,0.99831865782,0.385219772676,31.6910958202471,-204.412178778805,1.46471597022631,2.67871070257908
-74,40.45,"NJ_Sandy_ Hook",2009,31,364,1.49136169383427,2.56110138364906,0.978241934963,0.885423854677,0.978232690185,0.885423911085,25.221972429182,1718.03638204814,1.40890367781731,2.71886425709299
-74.8167,41.1,"NJ_Sprin_gdale",2009,46,2525,1.66275783168157,3.40226138245468,0.996848078035,0.884467425713,0.996846792791,0.884467481967,31.5574727179491,449.622183667392,1.50518220517005,2.7072659410875
-74.5833,41.2333,"NJ_Wallk_efuge",2009,36,1124,1.55630250076729,3.05076631123304,0.993730009384,0.954586048711,0.993723580256,0.954586179433,31.2499110908751,783.750015680545,1.5216193231208,2.65601428779326
-106.3167,35.8833,"NM_Los A_lamos",2009,42,207,1.6232492903979,2.31597034545692,0.928624809645,0.673862229571,0.92862478378,0.673862229571,44.4895449294103,1363.39098761191,1.68924787659775,2.39646858376346
-106.65,32,"NM_Organ_tains",2009,45,953,1.65321251377534,2.97909290063833,0.989809829034,0.452401312708,0.98980910495,0.452401317569,63.1714797715509,4862.02583847023,1.79245593522237,3.06380472434585
-105.8333,35.7,"NM_Santa_ta Fe",2009,29,129,1.46239799789896,2.11058971029925,0.917253905497,0.773123930253,0.917252227337,0.773123930542,28.6382713970899,377.934389120629,1.47353116532555,2.31112508880576
-105.3667,35.7,"NM_Upper_rshed",2009,33,216,1.51851393987789,2.33445375115093,0.952143196128,0.664309362009,0.952141573515,0.664309363013,31.9775349392231,3199.51167593729,1.48349215886753,2.516944307783
-117.125,39.2167,"NV_Kings_Creek",2009,53,580,1.72427586960079,2.76342799356294,0.976115704738,0.188683063729,0.976115682127,0.18868306373,31.9180992379632,-240.22827978967,1.44045307378935,2.55640729317527
-117.245,38.9383,"NV_Ophir_anyon",2009,17,111,1.23044892137827,2.04532297878666,0.952255229093,0.617796141149,0.951978443799,0.617812028527,28.4082620450753,573.056771128586,1.40954628555727,2.47097392159657
-75.9,42.1167,"NY_Bingh_amton",2009,29,581,1.46239799789896,2.76417613239033,0.989091281556,0.541716565538,0.989068363629,0.541719335426,28.2252995840319,788.936585428918,1.41226215535953,2.67350673491049
-72.7833,40.8333,"NY_Centr_k Co.",2009,40,796,1.60205999132796,2.90091306773767,0.988976717703,0.732413819371,0.988974702627,0.732413842301,30.4478672565488,-1491.70899563734,1.4731556406819,2.83430821872629
-74.03,42.0573,"NY_Easte_kills",2009,40,1896,1.60205999132796,3.27783833300205,0.996238223948,0.636834213237,0.996234704956,0.636834810444,33.924110449345,1365.50705807718,1.50218385867566,2.82129897751822
-76.7833,42.5167,"NY_Finge_orest",2009,17,126,1.23044892137827,2.10037054511756,0.959977566563,0.784642701754,0.959672821767,0.7846614455,25.5525961712086,2563.06870373003,1.37826667785735,2.70562271352157
-74.5667,41.8833,"NY_Halls_Mills",2009,29,754,1.46239799789896,2.87737134586977,0.992146961577,0.526139918697,0.9921219954,0.526145938069,30.2803715384094,-904.136022502985,1.49242213800227,2.7455054661334
-74.9817,43.1167,"NY_Herki_kimer",2009,17,256,1.23044892137827,2.40823996531185,0.984619517438,0.826093692835,0.984255146358,0.826217490647,24.2467009157956,244.881437573864,1.35805455624787,2.65865486900194
-73.9833,44.25,"NY_Lake _lacid",2009,27,205,1.43136376415899,2.31175386105575,0.960994923525,0.524761819594,0.96098014013,0.524761928722,27.0000000000016,204.999999999944,1.431363764159,2.5841327415748
-77.9833,42.65,"NY_Letch_ Park",2009,39,2725,1.5910646070265,3.43536650661266,0.997644004785,0.0681109339912,0.997639547842,0.0681115453327,25.2890112800514,2064.38466150784,1.35872358906446,2.61905226737019
-74.6333,41.5667,"NY_Monti_cello",2009,27,724,1.43136376415899,2.85973856619715,0.992457332276,0.661830367384,0.992419300123,0.661842911164,29.5176955363377,-1144.60115022207,1.48666914977502,2.73148795054915
-73.5667,40.85,"NY_Mutto_ntown",2009,39,1300,1.5910646070265,3.11394335230684,0.994214067869,0.547983616484,0.994210381929,0.547983925069,29.5398619213134,1493.66329309072,1.50209672453014,2.76266701311474
-73.6833,41.2,"NY_North_r Co.",2009,49,2568,1.69019608002851,3.40959501939682,0.996666393243,0.573713110733,0.996665653412,0.573713153565,32.9030120378738,461.875868745253,1.53730730942334,2.66204643638342
-76.2333,42.1,"NY_Owego_Owego",2009,24,195,1.38021124171161,2.29003461136252,0.964458435886,0.739520747887,0.964418382798,0.739521395527,28.2875941657976,1191.62214744145,1.42292392998286,2.68872693027241
-77.5,43.0833,"NY_Roche_ester",2009,42,4799,1.6232492903979,3.68115074993242,0.99868478369,0.000370707428258,0.99868203775,0.00037071176636,25.6522123325713,3036.44211730845,1.44373449542362,2.82058829632297
-74.15,40.5833,"NY_State_sland",2009,26,451,1.41497334797082,2.65417654187796,0.986911902688,0.72168391156,0.986869311789,0.72168888268,29.1062005805495,2059.08524538618,1.47055766437809,2.65322134985533
-78.1138,42.135,"NY_Steam_mburg",2009,16,84,1.20411998265592,1.92427928606188,0.935090419091,0.727538663622,0.934778206844,0.727548052045,29.236150794371,950.849524100489,1.385775720801,2.68091577359342
-73.75,41.5833,"NY_Storm_ville",2009,13,39,1.11394335230684,1.5910646070265,0.851403861009,0.782972351592,0.851000703488,0.782975115213,33.2267843085378,749.872617623071,1.49286933224997,2.66631126855607
-75.3333,43.1333,"NY_Utica_Utica",2009,30,369,1.47712125471966,2.56702636615906,0.979531519599,0.157993876998,0.979518903659,0.15799402577,22.7532990842076,380.118562426089,1.3495156198501,2.63878218342066
-78.9167,43.0333,"NY_Weste_a Co.",2009,31,3593,1.49136169383427,3.55545721720465,0.998718733527,0.0940561944642,0.998703949582,0.0940783490351,31.0000000000015,3593.00000000001,1.49136169383429,2.74347815584312
-75.8833,42.3333,"NY_Whitn_Point",2009,19,579,1.27875360095283,2.76267856372744,0.99373271998,0.123129544799,0.993532372105,0.123290481213,28.5571011621121,1324.94821415411,1.41961385112366,2.70343157655159
-75.6167,42.1,"NY_Winds_ndsor",2009,53,1662,1.72427586960079,3.22063101944809,0.993757489733,0.484297642161,0.993757268007,0.484297643492,28.0541797676936,594.927336362057,1.40837677131682,2.64955994228538
-83.4167,38.775,"OH_Adams_s Co.",2009,48,1065,1.68124123737559,3.02734960777476,0.9903905854,0.1862589597,0.990390185329,0.186258960778,38.0571984454958,1628.82093040524,1.60996161913772,2.77275634030678
-81.5637,41.0605,"OH_Akron_Akron",2009,19,100,1.27875360095283,2,0.935117330365,0.54784088815,0.935009836831,0.54784254692,29.5960999341389,31.3234488563542,1.4573237163179,2.69033387454299
-82.3733,40.7183,"OH_Ashla_d Co.",2009,25,274,1.39794000867204,2.43775056282039,0.976204869859,0.900915630715,0.976163485012,0.900916312656,29.822027213713,683.682277615826,1.46413820067958,2.62813442827462
-84.2667,39.8667,"OH_Aullw_ Farm",2009,26,218,1.41497334797082,2.3384564936046,0.96592578169,0.782938424419,0.965902534926,0.782938649225,26.1320750962621,643.839600739436,1.43796472397576,2.58375818521642
-81.4333,41.4833,"OH_Chagr_alley",2009,36,2108,1.55630250076729,3.32387060654051,0.997090174668,0.490919237071,0.99708282042,0.490923316668,32.0696894765276,566.898424348204,1.48465161090427,2.76069805400338
-83.05,40.3833,"OH_Delaw_e Co.",2009,28,438,1.44715803134222,2.6414741105041,0.985033729412,0.302508655318,0.985008437613,0.302510212477,25.4677360035141,748.358986843062,1.41331408164873,2.61403963576485
-81.3592,41.6868,"OH_Holde_retum",2009,39,1148,1.5910646070265,3.05994188806195,0.993252225704,0.85770532996,0.993248790365,0.857705429454,32.7332672116554,864.653357712941,1.48814905248547,2.77554251792919
-81.0548,41.723,"OH_Lake _ East",2009,42,3751,1.6232492903979,3.57414706415072,0.998240036331,0.00953340547004,0.998237270546,0.00953347051619,32.5288161422326,1145.81797230194,1.48014954724801,2.72560867922316
-83.2059,41.6234,"OH_Magee_Count",2009,29,1079,1.46239799789896,3.03302144468291,0.994967942946,0.620239621171,0.994941944119,0.620253591684,21.9004297548704,1045.88499368896,1.34901125866842,2.65521146244524
-82.1,40.4167,"OH_Mohaw_k Dam",2009,43,760,1.63346845557959,2.88081359228079,0.987180865668,0.408849795454,0.987179975012,0.408849799965,32.6181357621612,1319.35165429381,1.5176849111065,2.65737483601751
-81.3342,40.8738,"OH_Quail_ville",2009,34,477,1.53147891704226,2.67851837904011,0.982750539221,0.649301612569,0.982745130384,0.649301684844,30.3288701451309,373.10504753952,1.46942482467503,2.68880224388774
-82.9333,41.4167,"OH_Sandu_y Bay",2009,21,578,1.32221929473392,2.76192783842053,0.992795527764,0.727822961076,0.992661598365,0.727937553043,21.1971378818289,602.65111918849,1.34003360141106,2.61968069057926
-83.2,38.7333,"OH_Shawn_orest",2009,28,326,1.44715803134222,2.51321760006794,0.978008778803,0.463644879958,0.97798886494,0.463645448121,38.6682495080363,76.8454505080168,1.5819789913809,2.77764416107907
-81.2717,41.112,"OH_Towne_Woods",2009,26,827,1.41497334797082,2.91750550955255,0.993912922181,0.749037303791,0.993865986305,0.749060157851,30.4454607285545,438.027880573116,1.46640987443131,2.71062116898532
-84.7333,39.1917,"OH_Weste_Parks",2009,32,616,1.50514997831991,2.78958071216443,0.988511947878,0.656658619224,0.988500439375,0.656659256921,32.7616474182745,1838.98592393922,1.58485702195059,2.65556364711931
-81.7667,41.0167,"OH_Wolf _Creek",2009,25,557,1.39794000867204,2.74585519517373,0.990497272052,0.4102993305,0.990440374219,0.410317704708,28.6022494469535,16.6253761281998,1.44501419436818,2.6644099730929
-98.9833,34.7333,"OK_Great_ Park",2009,48,639,1.68124123737559,2.8055008581584,0.981528539769,0.452001354419,0.981528381702,0.452001354503,44.9965661151625,445.075971982924,1.64185529159916,2.77476657632122
-94.8333,36.0333,"OK_Nicke_serve",2009,54,1122,1.73239375982297,3.04999285692014,0.989560813643,0.966029479498,0.989560707237,0.966029479514,47.3969184390717,2375.66204589435,1.74788842221222,2.73037018792618
-96.6667,34.5,"OK_Ponto_Ridge",2009,37,432,1.56820172406699,2.63548374681491,0.978072125874,0.686003088991,0.978070177772,0.686003095253,42.216584937598,1290.7646366278,1.59189739472929,2.77867004001955
-96.4,36.8333,"OK_Tallg_serve",2009,42,1169,1.6232492903979,3.06781451116184,0.992764752768,0.717666362353,0.992762942974,0.717666405789,41.0171437726724,1862.97650839958,1.61796871635877,2.78680522504829
-96.65,34.2,"OK_Tisho_efuge",2009,41,260,1.61278385671974,2.41497334797082,0.949990324192,0.919273465241,0.949990211132,0.919273465243,42.3720935652685,1020.05042418174,1.58945494188599,2.75980303514677
-95.9167,36.2,"OK_Tulsa_Tulsa",2009,77,3995,1.88649072517248,3.60151678365001,0.996624850743,0.886689961539,0.996624850825,0.886689961539,40.9292426904627,1011.26851821904,1.59462341732848,2.72945721193091
-98.6667,34.7333,"OK_Wichi_efuge",2009,48,831,1.68124123737559,2.91960102378411,0.986836949475,0.395949299849,0.986836681693,0.395949300278,46.6211541072225,952.089237482193,1.69713748458329,2.77896570694047
-122.0833,44.3167,"OR_Browd_Ridge",2009,38,800,1.57978359661681,2.90308998699194,0.989735864215,0.765113284554,0.989732567509,0.765113345455,38.0000000000013,800.000000000062,1.57978359661682,2.73157767757611
-123.0833,44.0333,"OR_Eugen_ugene",2009,30,413,1.47712125471966,2.6159500516564,0.982330756299,0.704591381062,0.98231662647,0.704591761721,30.0000000000012,413.000000000058,1.47712125471967,2.68998958129048
-121.6167,44.4667,"OR_Metol_olius",2009,29,2085,1.46239799789896,3.31910605930978,0.997742424868,0.00661463099702,0.997718705438,0.00661605913481,28.5700697872419,2258.59051070034,1.48531718082157,3.09950376835778
-120.2667,44.3667,"OR_Ochoc_choco",2009,46,344,1.66275783168157,2.53655844257153,0.960162680782,0.749085812704,0.96016263259,0.749085812706,40.8094819974999,546.144540336029,1.58225987112256,2.62852949900784
-75.3333,40.0667,"PA_Bryn _ Mawr",2009,26,412,1.41497334797082,2.61489721603313,0.985296312757,0.821865178457,0.985255361308,0.821867890991,33.5369971537989,-263.877933905081,1.48822399493546,2.71824072938281
-78.6167,40.1167,"PA_East _d Co.",2009,44,1395,1.64345267648619,3.14457420760962,0.993842686303,0.984672202876,0.993841333268,0.984672205426,37.4061487353557,2318.89580970616,1.54886486765622,2.72635935652525
-76.3,40.2167,"PA_Furna_Hills",2009,34,732,1.53147891704226,2.86451108105839,0.990026616789,0.573779923547,0.990018643218,0.573780380455,34.4934499295677,420.868709864752,1.48725919780651,2.69988011727337
-75.9167,40.5833,"PA_Hawk _ntain",2009,38,736,1.57978359661681,2.8668778143375,0.988592651747,0.695551259094,0.988589609474,0.695551309486,33.2165338501891,-113.801193980028,1.52728450419542,2.69744309338293
-76.3,39.9167,"PA_Holtw_twood",2009,28,282,1.44715803134222,2.45024910831936,0.973352469541,0.677966808975,0.973335560305,0.677967063931,31.6994868955302,206.749819302292,1.45298410686459,2.70866786733505
-75.3167,40.6833,"PA_Marit_tuary",2009,25,169,1.39794000867204,2.22788670461367,0.954253282584,0.779219012736,0.954230977756,0.779219132615,33.2625057973847,-100.460252844151,1.54029951580948,2.7092788321824
-76.55,41.0667,"PA_Monto_serve",2009,19,270,1.27875360095283,2.43136376415899,0.983248779662,0.790762974389,0.98302960751,0.790813006276,34.1771751850265,2202.75863176265,1.51122257201703,2.68908900469524
-76.7,39.8667,"PA_Nixon_ Park",2009,35,623,1.54406804435028,2.79448804665917,0.987300790809,0.816476740236,0.987295282083,0.81647682877,31.4237158484184,825.093981884905,1.45843186902054,2.72316169197246
-80.0333,41.3167,"PA_Sandy_Creek",2009,23,182,1.36172783601759,2.26007138798507,0.963169749789,0.657629134727,0.963117609749,0.657630288611,33.652991357198,194.050105062723,1.49790130019877,2.69702290584598
-75.2167,40.9833,"PA_Strou_sburg",2009,31,288,1.49136169383427,2.45939248775923,0.970307032876,0.908921546574,0.970300476568,0.908921559845,35.3827562666644,159.350401387368,1.55663238395936,2.8037400088166
-71.75,45.3333,"QC_Compt_n Co.",2009,18,315,1.25527250510331,2.4983105537896,0.987297930457,0.078864443675,0.987016608005,0.0789205200872,18.2181405726702,361.120748194465,1.21212103066203,2.65755586632967
-71.575,41.5833,"RI_Kent _t Co.",2009,29,374,1.46239799789896,2.57287160220048,0.980765319876,0.773654199189,0.980748263163,0.773654586135,36.400570880531,-107.255477290874,1.52350130436784,2.73226242762501
-71.3,41.5167,"RI_Newpo_t Co.",2009,24,363,1.38021124171161,2.55990662503611,0.984408764876,0.757177163218,0.984343952771,0.757184233136,34.8343930365819,339.185612395483,1.50805788505901,2.80490173878263
-71.5167,41.8667,"RI_Provi_e Co.",2009,30,320,1.47712125471966,2.50514997831991,0.975303154998,0.678458232265,0.975292535571,0.678458355644,36.0242322621974,-182.48821973827,1.52198342037536,2.73444899226322
-71.7,41.4333,"RI_Washi_n Co.",2009,25,265,1.39794000867204,2.42324587393681,0.975126681738,0.478556315484,0.975086484214,0.478557976888,35.8852600711773,375.529388713412,1.51370549109291,2.75205441417855
-80.75,33.7667,"SC_Conga_garee",2009,37,462,1.56820172406699,2.66464197555613,0.979920452647,0.869678706614,0.979918266644,0.869678711476,40.7899259895583,2945.89357834729,1.57839523434728,2.79065210484008
-79.4833,33.1333,"SC_Franc_orest",2009,61,3485,1.78532983501077,3.54220278243403,0.996995198987,0.715823892354,0.996995099896,0.715823893319,47.2400365203448,-595.425485950545,1.66524619187567,2.86156805325903
-79.2333,33.3833,"SC_Hobca_arony",2009,57,2186,1.75587485567249,3.33965015761368,0.995126235746,0.648945046518,0.99512610679,0.648945047216,43.3523406862938,-375.67109663297,1.61307627977894,2.85676123396289
-96.7607,45.041,"SD_Stran_dburg",2009,19,422,1.27875360095283,2.62531245096167,0.990618559979,0.366956007397,0.990402724278,0.367149526437,22.6147795173832,-382.437123541282,1.33064554742499,2.65294899504617
-97.3595,42.997,"SD_Yankt_nkton",2009,16,101,1.20411998265592,2.00432137378264,0.950044925474,0.769807799734,0.949670626957,0.769826724,25.1970739179619,478.946825431492,1.39268431486312,2.68811802688242
-86.1,35.4833,"TN_Coffe_e Co.",2009,20,126,1.30102999566398,2.10037054511756,0.949631342478,0.796784462013,0.949531565467,0.796785985922,36.525717989858,2832.22652916021,1.54866306075299,2.80633660283144
-88.0333,35.6167,"TN_DeKal_ounty",2009,43,949,1.63346845557959,2.97726621242729,0.990326774083,0.920116813786,0.990325600268,0.92011681777,40.2795537791261,4251.67774750731,1.56487108120383,2.77698375631694
-85.8167,36,"TN_Decat_r Co.",2009,47,634,1.67209785793572,2.80208925788173,0.981843043752,0.535385519556,0.981842831786,0.535385519709,37.9003861656781,-61.6346678650303,1.5417656956335,2.76638951289248
-82.1167,36.35,"TN_Eliza_thton",2009,29,265,1.46239799789896,2.42324587393681,0.969645587616,0.596280121775,0.969634392864,0.596280222961,35.9674015598765,1081.79602712164,1.51418586729579,2.49208192316135
-85.05,35.0833,"TN_Grind_ntain",2009,56,15031,1.7481880270062,4.17698787480081,0.999511949681,1.59798397267e-08,0.999511589599,1.59798674694e-08,36.1284308318443,716.145002937144,1.52248388966614,2.76747910707357
-88.7333,35.55,"TN_Jacks_ckson",2009,38,222,1.57978359661681,2.34635297445064,0.943916912489,0.590243984051,0.943916707899,0.590243984066,37.3747778099106,3054.84871823026,1.54067918415814,2.77948188590219
-87.9407,36.6058,"TN_Land _South",2009,38,617,1.57978359661681,2.79028516403324,0.985712037273,0.810925543553,0.985709539927,0.810925559871,41.6068234388615,22.486068649552,1.59209343911006,2.79855787339723
-89.7667,35.65,"TN_Lower_tchie",2009,35,872,1.54406804435028,2.94051648493257,0.991697916202,0.144259511393,0.991690857833,0.144259771746,31.3145451051055,862.796718464384,1.46420016452561,2.80801779187468
-90.0167,35.35,"TN_Meema_orest",2009,27,325,1.43136376415899,2.51188336097887,0.978957187794,0.736697049249,0.978930580061,0.736697874804,31.8075199633322,1596.024161181,1.46646934487887,2.82193006475311
-86.8667,36.0167,"TN_Owl's_ille)",2009,39,478,1.5910646070265,2.67942789661212,0.979424728118,0.599488153091,0.979423462527,0.599488156574,38.6477352992806,2252.2526386187,1.56842179429736,2.73298157198538
-85.3167,36.1333,"TN_Putna_ East",2009,37,493,1.56820172406699,2.69284691927723,0.981552126445,0.843742212961,0.981549714096,0.843742220985,38.3582454396634,-2308.23916933188,1.530280676041,2.77037356944537
-85.65,36.15,"TN_Putna_ West",2009,30,344,1.47712125471966,2.53655844257153,0.977554417066,0.912983534533,0.977542779029,0.912983598587,39.1458631108143,-941.660763567185,1.55492902858757,2.77926541341539
-89.37,36.43,"TN_Reelf_ Lake",2009,27,248,1.43136376415899,2.39445168082622,0.969863603376,0.572279314435,0.969843808528,0.572279617702,23.584922098016,13325.245140319,1.37245898343617,2.73513739034904
-82.1167,36.1,"TN_Roan _ntain",2009,22,118,1.34242268082221,2.07188200730613,0.936769910194,0.689250634364,0.936731226809,0.689250859469,35.7788274500522,75.7354321102318,1.51654128438844,2.56492730286136
-85.9167,35.2,"TN_Sewan_wanee",2009,31,166,1.49136169383427,2.22010808804005,0.936585424952,0.648997771958,0.936583776608,0.648997772568,36.87890548249,2205.40261588313,1.54682572192276,2.83979864820148
-85.15,35.2933,"TN_Soddy_Daisy",2009,35,408,1.54406804435028,2.61066016308988,0.978027588241,0.623715301182,0.978024327288,0.6237153192,36.6762019082024,702.328812766602,1.52807701637981,2.80580422132814
-85.4,35.1167,"TN_Tenne_Gorge",2009,68,2930,1.83250891270624,3.46686762035411,0.995772091337,0.66795997047,0.995772065028,0.667959970514,37.220081377627,1245.36885673651,1.57202067192422,2.82905393819056
-94.6667,31.25,"TX_Angel_orest",2009,33,610,1.51851393987789,2.78532983501077,0.987900940664,0.864156997128,0.987892008347,0.864157184854,41.288855176784,-2993.47729581005,1.54050322311697,2.63855305911308
-96.2833,29.6833,"TX_Attwa_water",2009,16,138,1.20411998265592,2.13987908640124,0.967626088969,0.345826630651,0.967179939466,0.345899769953,34.1969129761566,-279.167735830425,1.48883616156852,2.66222846066817
-97.7667,32.3167,"TX_Austi_ustin",2009,32,118,1.50514997831991,2.07188200730613,0.890974170752,0.615638371101,0.890973974411,0.615638371105,34.8178484124917,-456.762180875819,1.48796520091991,2.75144584325426
-98.5,26.25,"TX_Bents_ Park",2009,55,1428,1.74036268949424,3.15472820744016,0.992108339332,0.136444576437,0.99210822604,0.136444576548,50.7799479052966,1037.93058139059,1.67210509041128,2.86519960330081
-98.7833,29.8667,"TX_Boern_ircle",2009,25,121,1.39794000867204,2.08278537031645,0.926754273959,0.798529558184,0.926744078271,0.798529568565,32.7360720573746,724.990148347238,1.50396098020726,2.60263063006244
-95.6667,29.3667,"TX_Brazo_ Bend",2009,45,1594,1.65321251377534,3.20248831706009,0.994628699161,0.0404492360944,0.994627493253,0.0404492429484,37.6665118661121,-1063.07821855924,1.58586986044441,2.57645071000188
-96.05,29.9,"TX_Brazo_alley",2009,38,339,1.57978359661681,2.53019969820308,0.968639357574,0.744461484948,0.968638512016,0.744461485512,33.9537197084479,-486.108493473107,1.50329018481692,2.63336927163011
-95.45,30.3,"TX_Conro_onroe",2009,38,473,1.57978359661681,2.67486114073781,0.979837367646,0.368829356891,0.979835676874,0.368829362981,38.5447684561061,-699.755794099485,1.57723260209845,2.49218853855494
-95.7167,29.15,"TX_Danci_ciger",2009,41,851,1.61278385671974,2.92992956008459,0.98954862345,0.693629332971,0.989546925927,0.693629352906,38.7448982589865,-351.564120305989,1.61054988715271,2.58976265972191
-97.6333,31.1833,"TX_Fort _ Hood",2009,40,390,1.60205999132796,2.5910646070265,0.972158414684,0.885467459358,0.972157823032,0.885467459549,33.6353396926557,-383.164365441874,1.52976824629817,2.67963854694024
-95.3833,29,"TX_Freep_eport",2009,32,212,1.50514997831991,2.32633586092875,0.952938224338,0.479579396485,0.952935912986,0.479579398761,40.3410508887683,1685.86480336872,1.61113470366142,2.68077781724246
-97.55,28.6667,"TX_Golia_oliad",2009,44,692,1.64345267648619,2.84010609445676,0.985112456493,0.702175147302,0.985111881016,0.702175148572,32.8781976692343,831.366525533561,1.49566969141405,2.6879877293758
-101.85,31.75,"TX_Harri_Ranch",2009,69,3945,1.83884909073726,3.59604700754544,0.996997834705,0.775411470231,0.996997804962,0.775411470315,70.8484050893096,4177.52374830266,1.85215397946683,2.88935433508518
-95.0885,29.9382,"TX_Houst_Lakes",2009,42,427,1.6232492903979,2.63042787502502,0.97366767738,0.893252779587,0.973667298175,0.893252779673,36.0096906004816,608.375861947196,1.54352529363028,2.4971583562984
-95.3667,29.7333,"TX_Houst_uston",2009,31,440,1.49136169383427,2.64345267648619,0.983014695011,0.364765707278,0.983003305056,0.364766012922,34.6632268024132,-386.101781148865,1.52753242447151,2.53770359135173
-99.18,30.07,"TX_Kerrv_ville",2009,30,203,1.47712125471966,2.30749603791321,0.954297865145,0.798943478635,0.954293269079,0.798943484351,34.2838097852835,1370.99647386514,1.51843774233756,2.63400418924933
-97.8833,27.5,"TX_Klebe_g Co.",2009,34,416,1.53147891704226,2.61909333062674,0.979381463416,0.000850177828437,0.979376936165,0.000850177965332,37.5746215832406,3446.50345469799,1.53862408072921,2.83976398856441
-98.3983,33.76,"TX_Lake _LASP)",2009,17,112,1.23044892137827,2.04921802267018,0.952850676589,0.876928686793,0.952571751223,0.876936223538,32.6756644258406,271.190743824088,1.48214068871656,2.78191318136554
-95.7167,30.2667,"TX_Magno_nolia",2009,44,327,1.64345267648619,2.51454775266029,0.959821759723,0.818219900125,0.959821674997,0.818219900128,39.0108196571364,8.55832037039545,1.6216294696796,2.54407991453407
-102.0333,31.95,"TX_Midla_dland",2009,73,4172,1.86332286012046,3.62034429975449,0.996996352114,0.120568305792,0.996996336266,0.120568305808,70.6351058542097,4023.6259619014,1.83934692915321,2.91085703224762
-95.2833,30.1167,"TX_Piney_lands",2009,35,192,1.54406804435028,2.28330122870355,0.93871610295,0.784043785248,0.938715653773,0.784043785289,40.2801562576363,-117.266001577114,1.58625444413433,2.4639122391557
-95.7167,30.5,"TX_Raven_Raven",2009,57,1050,1.75587485567249,3.02118929906994,0.987838641889,0.11806333738,0.987838607719,0.118063337384,39.5657356715546,-709.068748861074,1.61576556028463,2.58353648213194
-94.3,30.3833,"TX_Roy L_tuary",2009,21,57,1.32221929473392,1.75587485567249,0.825967226364,0.723584757404,0.825962405993,0.723584757992,34.9050142877763,-55.4613839092654,1.48180647128973,2.43904298234317
-95.1833,30.4667,"TX_San J_o Co.",2009,35,540,1.54406804435028,2.73239375982297,0.984744609185,0.41158185814,0.984739851669,0.411581934621,37.2907403237619,-1061.31486225174,1.53989848649069,2.48753193884904
-98.1833,26.1667,"TX_Santa_efuge",2009,53,1027,1.72427586960079,3.01157044359728,0.988596395664,0.0227935054667,0.988596287761,0.022793505476,57.2200520947041,1417.06941860941,1.7925334686838,2.90034922381171
-95.55,30.1167,"TX_Sprin_Creek",2009,38,288,1.57978359661681,2.45939248775923,0.960884702615,0.590948357422,0.960884168654,0.590948357615,39.143637498419,176.270581149713,1.59987358312584,2.476122823846
-97.6,30.9667,"TX_Still_ollow",2009,40,216,1.60205999132796,2.33445375115093,0.937334313132,0.624215306646,0.937334232335,0.624215306648,34.3447784646885,-782.822256770625,1.52701427720471,2.72543271874977
-97.4667,32.7167,"TX_Tarra_t Co.",2009,54,652,1.73239375982297,2.81424759573192,0.979015323333,0.331105953197,0.979015295713,0.331105953199,37.2299049496842,2.48477263882194,1.53006425741754,2.78345820769932
-94.9167,30.3333,"TX_Trini_River",2009,44,1367,1.64345267648619,3.13576851456782,0.993686415218,0.95854157207,0.993685092025,0.958541578201,38.5941099013217,-607.205553097484,1.53773396813484,2.44685126715314
-97.8,28.85,"TX_Victo_toria",2009,33,359,1.51851393987789,2.55509444857832,0.975932926722,0.897749973211,0.975928002245,0.897749986077,29.9711696461627,1461.90970376993,1.45807415783741,2.69590897557794
-112.15,37.6,"UT_Bryce_anyon",2009,24,124,1.38021124171161,2.09342168516224,0.933293788321,0.807985919182,0.933276273116,0.807985952458,24.0000000000013,124.000000000014,1.38021124171162,2.50430281207447
-77.7833,38.75,"VA_Airli_enter",2009,47,2476,1.67209785793572,3.39375064034808,0.996687538885,0.908669848139,0.996686484278,0.9086698768,42.66988303041,1605.32485206275,1.61992989028358,2.74989326447207
-78.15,37.9833,"VA_Blue _rkway",2009,20,260,1.30102999566398,2.41497334797082,0.981114926822,0.824964140034,0.980947832951,0.824985759645,38.8777071174515,723.616166587033,1.56079677769366,2.7551960799981
-78.8833,37.8167,"VA_Blue _tains",2009,23,348,1.36172783601759,2.54157924394658,0.984433804192,0.820939320826,0.984351205344,0.820948132312,31.3326064213579,2491.79215413896,1.49132900284166,2.7406204388323
-76.7833,37.6833,"VA_Chipp_ Park",2009,26,363,1.41497334797082,2.55990662503611,0.982674492784,0.665271158331,0.982636267157,0.665273830387,40.3284807171522,-1804.89945250769,1.57808146470727,2.81984461870418
-75.9333,37.2,"VA_Delma_a Tip",2009,40,7337,1.60205999132796,3.86551851907477,0.999245128222,0.0202583345805,0.999241743451,0.0202592858302,27.7820354143087,3507.96308109656,1.45184038618385,2.95011746630479
-76.4667,36.65,"VA_Disma_Swamp",2009,50,2424,1.69897000433602,3.38453261549425,0.996336733885,0.00999706647446,0.99633613457,0.00999706744875,42.0095809847146,3507.05556243871,1.62626422708925,2.90073787088716
-79.8833,37.5167,"VA_Finca_astle",2009,32,290,1.50514997831991,2.46239799789896,0.969299335219,0.842099492714,0.969294595542,0.84209950355,38.0718504197496,2438.49853867181,1.56875037084028,2.75774807993752
-78.6833,38.35,"VA_Islan_ Ford",2009,35,566,1.54406804435028,2.75281643118827,0.985640288852,0.799508746645,0.985635292921,0.799508808946,33.8745883982573,2993.2638102349,1.52409120250169,2.73535411848977
-79.4833,37.85,"VA_Lexin_ngton",2009,29,650,1.46239799789896,2.81291335664286,0.990536059029,0.930661584678,0.990512119944,0.930662602803,36.4276427708722,2805.86022081028,1.54902548023153,2.74444337463093
-77.95,37.6333,"VA_Maide_idens",2009,37,381,1.56820172406699,2.58092497567562,0.974111825712,0.394696406932,0.974110299111,0.394696410098,38.9568662914762,-195.04569179262,1.55732453296595,2.73825578840461
-79.5833,37.5,"VA_Peaks_Otter",2009,36,1098,1.55630250076729,3.04060234011407,0.993545643948,0.652161086072,0.993539276476,0.65216172219,33.8615454162242,2288.79728335587,1.51605534839102,2.74445755531635
-78.4667,38.5833,"VA_Shena_ Park",2009,51,2033,1.70757017609794,3.30813737863804,0.995351619534,0.292572148561,0.99535118288,0.292572155657,33.8410672296792,3120.95459757658,1.52466704260937,2.73139953251107
-77.95,39,"VA_Sky M_n WMA",2009,32,440,1.50514997831991,2.64345267648619,0.982297420464,0.598485688512,0.98228878978,0.598485862877,33.6503035293091,2937.87711053409,1.53284583259713,2.73375276280291
-77.65,39.2,"VA_Water_rford",2009,46,4899,1.66275783168157,3.69010743945633,0.998569755591,0.679199857032,0.998568267895,0.679200558734,41.6108101998883,1796.07418552396,1.6131640904663,2.74971199280581
-72.9,42.0833,"VT_Mount_ Snow",2009,21,219,1.32221929473392,2.34044411484012,0.974659216292,0.657131195111,0.974542032666,0.657141515012,21.9176132807465,-634.966623950533,1.34038253406943,2.70894539271049
-71.9333,44.8167,"VT_Senti_ Park",2009,11,32,1.04139268515822,1.50514997831991,0.844763785042,0.835572359421,0.843756248391,0.835583334888,20.0460837945448,1329.1919335476,1.24321246242854,2.65551673255861
-120.45,47.65,"WA_Chums_stick",2009,45,620,1.65321251377534,2.79239168949825,0.982335503586,0.926716337672,0.982335139913,0.926716337796,45.0000000000014,620.000000000029,1.65321251377535,2.43998354130627
-89.7167,43.4833,"WI_Barab_raboo",2009,54,473,1.73239375982297,2.67486114073781,0.967856309898,0.215009705321,0.967856297509,0.215009705321,34.1272347150615,1482.34692031636,1.52622181245342,2.58412933952867
-91.0833,46.5833,"WI_Bayfi_South",2009,33,1773,1.51851393987789,3.24870873560092,0.996776629128,0.112716922361,0.996764220386,0.112720438923,34.8810895152162,-84.2071688451622,1.47791642494968,2.5300688513084
-91.1042,44.8133,"WI_Beave_serve",2009,29,856,1.46239799789896,2.93247376467715,0.993297407292,0.194446140577,0.993271843771,0.19445144225,33.5953071564634,278.623296178044,1.5062224546686,2.59660586526354
-91.1,46.8,"WI_Cornu_copia",2009,46,483,1.66275783168157,2.68394713075151,0.974771638624,0.159697540329,0.974771490371,0.15969754035,32.6345439062579,-725.024769325813,1.43773511713977,2.52223506889304
-92.6167,45.85,"WI_Crex _adows",2009,43,336,1.63346845557959,2.52633927738984,0.962479790859,0.292087964056,0.962479658677,0.292087964068,36.5913462557562,1458.46150442685,1.52211788039678,2.51675584633071
-91.6833,44.4167,"WI_Gilma_anton",2009,32,296,1.50514997831991,2.47129171105894,0.970131742693,0.11611164218,0.97012682446,0.116111651638,35.6474903380799,449.209426338707,1.54121177855115,2.63414711111975
-89.3833,43.1,"WI_Madis_dison",2009,32,319,1.50514997831991,2.50379068305718,0.972974918,0.828864631399,0.972969310899,0.828864651708,32.6115207817499,1119.77271068448,1.50259192685722,2.61818166119331
-89.5333,43.4167,"WI_Mud L_ Lake",2009,18,118,1.25527250510331,2.07188200730613,0.952444341816,0.346979611104,0.952243774443,0.346988162304,33.2502184795747,1407.59404109826,1.51434686321081,2.60697108409612
-88.15,43.6667,"WI_North_raine",2009,31,194,1.49136169383427,2.28780172993023,0.949062671475,0.759074796223,0.949059954769,0.759074798167,28.9416529982754,73.7402033824403,1.44658769518977,2.52916755642827
-87.9833,43.4,"WI_River_enter",2009,35,381,1.54406804435028,2.58092497567562,0.975951152109,0.607944046385,0.975948250833,0.607944058701,30.2889864729721,-639.254018719535,1.46588310585636,2.52245010401929
-90.1,44.3667,"WI_Sandh_eneca",2009,40,441,1.60205999132796,2.64443858946784,0.976349759437,0.271770765787,0.976348960009,0.271770766702,31.7154345910902,1686.98948915467,1.48879484675326,2.60105576636348
-87.1,45.1833,"WI_Siste_r Bay",2009,28,499,1.44715803134222,2.69810054562339,0.987341958918,0.0836682164996,0.987314767685,0.0836691028347,21.797761796221,-912.442923394367,1.34242834480433,2.48043661454034
-91.4,44.0667,"WI_Tremp_aleau",2009,37,201,1.56820172406699,2.30319605742049,0.937863643058,0.779800375224,0.937863428778,0.779800375234,38.1446657460623,899.465602813795,1.57672840655719,2.59051288736409
-90.6667,44.2833,"WI_Wazee_Wazee",2009,53,755,1.72427586960079,2.87794695162919,0.983083283566,0.732050233517,0.983083221759,0.73205023353,33.4272865352422,1097.8348771712,1.50928613650509,2.58070282113548
-87.9667,42.9167,"WI_Wehr _enter",2009,20,106,1.30102999566398,2.02530586526477,0.935727004744,0.806623374608,0.935650639019,0.806623938909,27.6952877072666,-916.692307027204,1.43249029803668,2.50327641616823
-79.8,39.4833,"WV_Arthu_rdale",2009,26,160,1.41497334797082,2.20411998265593,0.947866325341,0.762335494852,0.947852947195,0.76233553246,35.7700912408604,-308.177521354313,1.52036280325609,2.70157466713163
-79.425,39.0667,"WV_Canaa_alley",2009,22,162,1.34242268082221,2.20951501454263,0.959376113825,0.642600163829,0.959311485855,0.642601618489,34.5483785571199,666.666467051133,1.43930603957694,2.63196381356413
-108.75,42.65,"WY_Red C_anyon",2009,34,164,1.53147891704226,2.2148438480477,0.926384944059,0.764263280872,0.926384572153,0.764263280893,29.5554891915544,2113.12547720889,1.48325566699343,2.03263980021812
